,City,Cloudiness (%),Country,Date,Humidity (%),Latitude,Longitude,Max Temp (F),Wind Speed (MPH)
0,Ushuaia,40,AR,2020-03-04 05:28:50,58,-54.8,-68.3,53.6,25.28
1,Tuktoyaktuk,20,CA,2020-03-04 05:33:01,64,69.45,-133.04,-45.4,4.7
2,Bluff,34,NZ,2020-03-04 05:33:01,50,-46.6,168.33,57.0,8.99
3,Rikitea,100,PF,2020-03-04 05:33:01,79,-23.12,-134.97,78.58,18.34
4,Seminole,1,US,2020-03-04 05:33:02,68,28.71,-81.21,70.0,3.76
5,Aklavik,40,CA,2020-03-04 05:29:46,73,68.22,-135.01,-34.6,2.24
6,Hobart,40,AU,2020-03-04 05:26:32,49,-42.88,147.33,71.01,13.87
7,Burns Lake,82,CA,2020-03-04 05:30:41,85,54.23,-125.75,23.81,6.8
8,Mtimbira,79,TZ,2020-03-04 05:33:03,88,-8.78,36.35,74.17,0.51
9,Hermanus,7,ZA,2020-03-04 05:33:03,88,-34.42,19.23,66.99,1.99
10,Bredasdorp,0,ZA,2020-03-04 05:33:03,93,-34.53,20.04,64.0,3.36
11,Cabedelo,75,BR,2020-03-04 05:23:34,94,-6.98,-34.83,78.8,2.24
12,Ayan,100,RU,2020-03-04 05:33:03,92,56.45,138.17,8.53,3.47
13,Bichura,32,RU,2020-03-04 05:33:04,64,50.59,107.6,20.88,5.17
14,Mataura,1,NZ,2020-03-04 05:23:25,50,-46.19,168.86,57.0,10.0
15,Busselton,59,AU,2020-03-04 05:23:16,13,-33.65,115.33,91.0,9.08
16,Erzin,0,TR,2020-03-04 05:33:04,100,36.96,36.2,53.01,4.7
17,Vaini,40,TO,2020-03-04 05:29:45,70,-21.2,-175.2,84.2,8.05
18,Mehamn,4,NO,2020-03-04 05:33:04,68,71.04,27.85,28.4,20.8
19,Namatanai,100,PG,2020-03-04 05:33:05,71,-3.67,152.43,86.05,16.78
20,Amurzet,100,RU,2020-03-04 05:33:05,88,47.7,131.1,23.99,6.17
21,Dillon,1,US,2020-03-04 05:33:05,100,34.42,-79.37,66.0,4.7
22,Butaritari,55,KI,2020-03-04 05:33:05,79,3.07,172.79,82.78,14.99
23,Kaeo,100,NZ,2020-03-04 05:33:06,88,-35.1,173.78,73.0,10.0
24,Bilma,0,NE,2020-03-04 05:33:06,11,18.69,12.92,64.6,3.09
25,Bakel,0,SN,2020-03-04 05:33:06,6,14.9,-12.46,74.35,10.89
26,Castro,22,BR,2020-03-04 05:29:40,98,-24.79,-50.01,51.57,2.17
27,Loksa,90,EE,2020-03-04 05:33:06,93,59.58,25.72,37.0,19.46
28,Kaitangata,2,NZ,2020-03-04 05:33:07,65,-46.28,169.85,52.9,17.29
29,Port Blair,88,IN,2020-03-04 05:33:07,73,11.67,92.75,80.49,9.69
30,Puerto Ayora,82,EC,2020-03-04 05:33:07,100,-0.74,-90.35,78.01,1.01
31,Verāval,0,IN,2020-03-04 05:33:07,32,20.9,70.37,84.74,8.84
32,Pangkalanbuun,100,ID,2020-03-04 05:29:01,49,-2.68,111.62,92.21,3.31
33,Yangi Marg`ilon,75,UZ,2020-03-04 05:30:00,76,40.43,71.72,50.0,2.24
34,Hilo,90,US,2020-03-04 05:33:08,83,19.73,-155.09,71.6,5.82
35,Atar,0,MR,2020-03-04 05:33:08,9,20.52,-13.05,66.79,7.07
36,Hvide Sande,21,DK,2020-03-04 05:33:09,86,56.0,8.13,35.01,4.7
37,Hithadhoo,40,MV,2020-03-04 05:33:09,75,-0.6,73.08,83.26,12.73
38,Cape Town,20,ZA,2020-03-04 05:31:06,88,-33.93,18.42,66.99,13.87
39,Saint Anthony,1,US,2020-03-04 05:33:09,80,45.02,-93.22,33.8,9.17
40,Sterling,90,US,2020-03-04 05:28:28,66,39.01,-77.43,55.4,18.34
41,Codrington,23,AU,2020-03-04 05:33:10,85,-38.27,141.97,61.7,17.05
42,Xining,0,CN,2020-03-04 05:33:10,20,36.62,101.77,40.77,6.38
43,Fortuna,90,US,2020-03-04 05:29:47,87,40.6,-124.16,50.0,4.12
44,Kapaa,40,US,2020-03-04 05:33:10,88,22.08,-159.32,75.2,8.05
45,Narsaq,0,GL,2020-03-04 05:29:54,45,60.92,-46.05,1.4,4.7
46,Santa Fe,0,AR,2020-03-04 05:33:11,64,-31.63,-60.7,79.0,1.01
47,Owando,76,CG,2020-03-04 05:33:11,80,-0.48,15.9,74.77,2.15
48,Jumla,0,NP,2020-03-04 05:33:11,92,29.27,82.18,63.0,5.84
49,Port Alfred,0,ZA,2020-03-04 05:33:11,94,-33.59,26.89,71.01,1.01
50,Burnie,100,AU,2020-03-04 05:30:57,69,-41.07,145.92,66.99,8.99
51,Punta Arenas,20,CL,2020-03-04 05:28:22,87,-53.15,-70.92,50.0,8.05
52,Marabu,75,MY,2020-03-04 05:33:12,79,4.41,114.01,86.0,8.05
53,Cherskiy,0,RU,2020-03-04 05:33:12,80,68.75,161.3,4.64,13.09
54,Faanui,66,PF,2020-03-04 05:29:44,78,-16.48,-151.75,82.74,9.57
55,Katangli,98,RU,2020-03-04 05:33:13,92,51.71,143.23,20.3,5.5
56,Polessk,75,RU,2020-03-04 05:33:13,86,54.86,21.1,41.0,13.42
57,Ponta do Sol,75,PT,2020-03-04 05:29:47,77,32.67,-17.1,62.6,8.05
58,George Town,20,MY,2020-03-04 05:33:13,59,5.41,100.34,91.4,6.93
59,Deputatsky,0,RU,2020-03-04 05:30:10,65,69.3,139.9,1.18,3.38
60,Mildura,90,AU,2020-03-04 05:33:14,100,-34.2,142.15,63.0,5.82
61,Iqaluit,90,CA,2020-03-04 05:30:15,77,63.75,-68.51,6.8,3.36
62,Saldanha,41,ZA,2020-03-04 05:33:14,88,-33.01,17.94,62.6,8.05
63,Yerköy,0,TR,2020-03-04 05:33:14,57,39.64,34.47,44.65,6.33
64,Jamestown,90,US,2020-03-04 05:29:54,69,42.1,-79.24,37.99,17.22
65,Los Llanos de Aridane,0,ES,2020-03-04 05:33:15,82,28.66,-17.92,62.6,10.29
66,Cidreira,90,BR,2020-03-04 05:33:15,74,-30.18,-50.21,72.54,8.5
67,Thompson,90,CA,2020-03-04 05:30:37,78,55.74,-97.86,14.0,2.26
68,Albany,90,US,2020-03-04 05:30:02,75,42.6,-73.97,46.0,12.75
69,Torbay,90,CA,2020-03-04 05:33:16,100,47.67,-52.73,37.0,18.34
70,Esperance,65,AU,2020-03-04 05:33:16,38,-33.87,121.9,77.0,6.93
71,Koshurnikovo,100,RU,2020-03-04 05:33:16,96,54.17,93.3,28.24,3.31
72,Inhambane,40,MZ,2020-03-04 05:30:17,61,-23.86,35.38,78.8,6.93
73,New Norfolk,40,AU,2020-03-04 05:33:17,49,-42.78,147.06,71.01,13.87
74,Kismayo,99,SO,2020-03-04 05:33:17,76,-0.36,42.55,81.91,7.81
75,Vila Franca do Campo,75,PT,2020-03-04 05:33:17,93,37.72,-25.43,64.4,19.46
76,Barrow,1,US,2020-03-04 05:33:01,74,71.29,-156.79,-23.8,9.17
77,Bambous Virieux,40,MU,2020-03-04 05:29:40,79,-20.34,57.76,84.2,1.12
78,Japura,99,ID,2020-03-04 05:33:18,50,-0.32,102.35,92.98,3.36
79,Mahébourg,40,MU,2020-03-04 05:33:18,79,-20.41,57.7,84.2,1.12
80,King City,1,US,2020-03-04 05:33:18,76,36.21,-121.13,61.0,4.7
81,Sukhaya Buyvola,41,RU,2020-03-04 05:33:18,32,45.15,43.0,53.6,6.71
82,Kamsack,90,CA,2020-03-04 05:32:11,85,51.57,-101.9,23.0,8.05
83,Troitskoye,99,RU,2020-03-04 05:33:19,81,52.98,84.68,25.77,14.36
84,Ahipara,100,NZ,2020-03-04 05:33:19,96,-35.17,173.17,73.0,22.95
85,Pevek,50,RU,2020-03-04 05:30:06,77,69.7,170.31,0.37,8.63
86,Monze,100,ZM,2020-03-04 05:33:20,98,-16.28,27.48,62.15,4.94
87,Igrim,53,RU,2020-03-04 05:33:20,71,63.19,64.42,18.25,13.96
88,Natal,20,BR,2020-03-04 05:33:14,88,-5.79,-35.21,80.6,2.24
89,Taos,1,US,2020-03-04 05:29:38,43,36.41,-105.57,37.0,5.82
90,San Quintín,0,MX,2020-03-04 05:33:20,76,30.48,-115.95,57.69,1.5
91,Dikson,79,RU,2020-03-04 05:33:21,98,73.51,80.55,-9.29,11.86
92,Bambari,0,CF,2020-03-04 05:33:21,44,5.77,20.68,78.89,3.56
93,Daru,100,PG,2020-03-04 05:33:21,62,-9.08,143.21,90.1,1.97
94,Arraial do Cabo,70,BR,2020-03-04 05:29:39,87,-22.97,-42.03,74.97,8.63
95,Carbonia,40,IT,2020-03-04 05:33:21,81,39.17,8.52,48.99,5.82
96,Leeuwarden,90,NL,2020-03-04 05:33:22,100,53.2,5.81,41.0,6.93
97,Saint George,1,US,2020-03-04 05:28:55,40,37.1,-113.58,53.6,1.23
98,Qaanaaq,100,GL,2020-03-04 05:29:42,98,77.48,-69.36,-13.9,1.57
99,Quatre Cocos,40,MU,2020-03-04 05:33:22,79,-20.21,57.76,84.2,1.12
100,Ābādān,0,IR,2020-03-04 05:33:22,62,30.34,48.3,59.0,9.17
101,Borba,100,BR,2020-03-04 05:33:23,96,-4.39,-59.59,73.92,5.19
102,Juneau,75,US,2020-03-04 05:33:23,74,58.3,-134.42,33.8,8.05
103,Fairbanks,1,US,2020-03-04 05:30:38,75,64.84,-147.72,-9.99,1.99
104,Edd,1,ER,2020-03-04 05:33:23,67,13.93,41.69,79.52,0.67
105,Pijijiapan,0,MX,2020-03-04 05:33:24,77,15.7,-93.23,72.09,3.04
106,San Javier,33,ES,2020-03-04 05:33:24,71,37.81,-0.84,63.0,6.93
107,Saltillo,100,MX,2020-03-04 05:33:24,19,25.42,-101.0,71.01,3.0
108,Boden,26,SE,2020-03-04 05:33:24,92,65.83,21.69,12.2,4.7
109,Alekseyevsk,100,RU,2020-03-04 05:33:24,84,57.84,108.35,21.45,8.28
110,Tasiilaq,100,GL,2020-03-04 05:33:25,63,65.61,-37.64,30.2,3.36
111,Lüderitz,0,NA,2020-03-04 05:33:25,88,-26.65,15.16,66.2,2.84
112,Minbu,0,MM,2020-03-04 05:33:25,24,20.18,94.88,89.85,7.38
113,Kieta,100,PG,2020-03-04 05:33:25,72,-6.22,155.63,85.42,5.93
114,Pierre,1,US,2020-03-04 05:29:14,80,44.37,-100.35,36.0,11.41
115,Ossora,0,RU,2020-03-04 05:33:26,79,59.24,163.07,-0.36,2.24
116,Severo-Kuril'sk,99,RU,2020-03-04 05:33:26,86,50.68,156.12,25.14,11.3
117,Khatanga,100,RU,2020-03-04 05:33:26,94,71.97,102.5,8.58,6.31
118,Birao,0,CF,2020-03-04 05:33:26,18,10.28,22.79,76.93,12.37
119,Tautira,20,PF,2020-03-04 05:33:26,78,-17.73,-149.15,82.4,5.82
120,Mar del Plata,0,AR,2020-03-04 05:33:27,93,-38.0,-57.56,69.01,9.89
121,Krasnyy Chikoy,12,RU,2020-03-04 05:33:27,76,50.36,108.75,18.59,2.53
122,Monte Patria,0,CL,2020-03-04 05:33:27,84,-30.69,-70.95,55.94,1.5
123,Ilulissat,0,GL,2020-03-04 05:33:27,46,69.22,-51.1,-16.6,2.24
124,Avarua,4,CK,2020-03-04 05:33:27,83,-21.21,-159.78,82.4,3.36
125,Alofi,36,NU,2020-03-04 05:30:40,83,-19.06,-169.92,80.6,2.24
126,Ouésso,59,CG,2020-03-04 05:33:28,89,1.61,16.05,72.7,2.95
127,Bethel,90,US,2020-03-04 05:32:54,66,41.37,-73.41,51.01,17.22
128,Ocean City,90,US,2020-03-04 05:33:28,76,39.28,-74.57,52.0,12.75
129,Zakamensk,79,RU,2020-03-04 05:33:28,55,50.37,103.29,22.23,2.1
130,Xai-Xai,20,MZ,2020-03-04 05:33:29,73,-25.05,33.64,75.02,2.53
131,Presidencia Roque Sáenz Peña,0,AR,2020-03-04 05:33:29,47,-26.79,-60.44,71.1,4.61
132,Bud,1,US,2020-03-04 05:33:29,64,39.45,-86.18,41.0,3.36
133,Vigrestad,75,NO,2020-03-04 05:33:29,80,58.57,5.7,35.01,5.82
134,Sur,0,OM,2020-03-04 05:30:17,54,22.57,59.53,74.1,11.27
135,Igunga,100,TZ,2020-03-04 05:33:08,89,-4.28,33.88,67.82,4.59
136,Cabo San Lucas,5,MX,2020-03-04 05:33:30,67,22.89,-109.91,62.01,8.72
137,Novovasylivka,53,UA,2020-03-04 05:33:30,70,46.83,35.75,47.68,8.72
138,Naze,75,JP,2020-03-04 05:33:30,88,28.37,129.48,64.4,5.82
139,Montevideo,0,UY,2020-03-04 05:28:39,82,-34.83,-56.17,68.0,10.29
140,São Filipe,1,CV,2020-03-04 05:29:45,72,14.9,-24.5,72.21,16.87
141,Ust'-Omchug,94,RU,2020-03-04 05:33:31,86,61.15,149.63,5.36,4.56
142,Port Keats,88,AU,2020-03-04 05:33:31,62,-14.25,129.55,84.88,6.2
143,Yellowknife,90,CA,2020-03-04 05:33:31,77,62.46,-114.35,0.0,3.36
144,Neuquén,0,AR,2020-03-04 05:29:46,32,-38.95,-68.06,84.2,8.43
145,Buraidah,0,SA,2020-03-04 05:28:42,53,26.33,43.98,51.8,4.7
146,Ngaoundéré,8,CM,2020-03-04 05:33:32,32,7.32,13.58,71.19,2.51
147,Tiksi,100,RU,2020-03-04 05:33:32,79,71.69,128.87,4.24,31.27
148,Siddipet,23,IN,2020-03-04 05:33:32,25,18.1,78.85,89.17,8.95
149,Kiryat Gat,14,IL,2020-03-04 05:33:33,87,31.61,34.76,57.99,5.82
150,Klaksvík,8,FO,2020-03-04 05:33:33,74,62.23,-6.59,37.4,12.75
151,Río Gallegos,69,AR,2020-03-04 05:32:37,87,-51.62,-69.22,53.6,33.33
152,Baykit,100,RU,2020-03-04 05:33:33,91,61.67,96.37,14.72,3.87
153,Bandarbeyla,100,SO,2020-03-04 05:33:33,63,9.49,50.81,77.43,7.47
154,Asti,0,IT,2020-03-04 05:33:34,55,44.9,8.21,39.0,5.82
155,Saint Paul Harbor,90,US,2020-03-04 05:33:06,72,57.79,-152.41,14.0,16.11
156,Balta,9,UA,2020-03-04 05:33:34,84,47.94,29.62,48.31,10.18
157,Solnechnyy,100,RU,2020-03-04 05:33:35,88,50.72,136.63,20.71,3.51
158,Port Lincoln,24,AU,2020-03-04 05:33:35,65,-34.73,135.87,66.58,12.48
159,Anadyr,0,RU,2020-03-04 05:33:35,77,64.75,177.48,5.0,13.42
160,Abalak,100,RU,2020-03-04 05:30:33,98,58.13,68.59,32.63,10.49
161,Oistins,40,BB,2020-03-04 05:33:36,69,13.07,-59.53,78.8,18.34
162,Longyearbyen,90,SJ,2020-03-04 05:32:51,84,78.22,15.64,5.0,10.29
163,Klyuchi,99,RU,2020-03-04 05:33:36,93,52.27,79.17,22.95,12.91
164,Yanam,40,IN,2020-03-04 05:33:36,58,16.73,82.22,84.2,3.36
165,Saiki,75,JP,2020-03-04 05:33:37,87,32.95,131.9,51.8,4.7
166,Kajaani,9,FI,2020-03-04 05:33:37,78,64.23,27.73,15.8,13.87
167,Pisco,100,PE,2020-03-04 05:33:37,78,-13.7,-76.22,72.0,9.17
168,Mayo,1,US,2020-03-04 05:33:37,66,38.89,-76.51,55.0,5.82
169,Arawa,100,PG,2020-03-04 05:33:38,72,-6.21,155.54,85.42,5.93
170,Norman Wells,75,CA,2020-03-04 05:33:38,68,65.28,-126.83,-16.6,3.36
171,Port Elizabeth,0,ZA,2020-03-04 05:33:38,94,-33.92,25.57,68.0,8.05
172,Mariehamn,90,AX,2020-03-04 05:33:38,93,60.1,19.93,37.4,18.34
173,Katsuura,75,JP,2020-03-04 05:33:39,87,35.13,140.3,54.0,10.29
174,Avera,90,US,2020-03-04 05:30:21,92,33.19,-82.53,64.4,4.7
175,Pedersore,75,FI,2020-03-04 05:33:39,68,63.65,22.68,30.99,8.05
176,Eyl,44,SO,2020-03-04 05:33:39,67,7.98,49.82,78.06,13.53
177,Touros,90,BR,2020-03-04 05:33:40,88,-5.2,-35.46,78.8,4.7
178,Benedita,83,PT,2020-03-04 05:33:40,80,39.42,-8.97,59.0,5.99
179,Meulaboh,59,ID,2020-03-04 05:33:40,74,4.14,96.13,84.09,5.1
180,Kupang,75,ID,2020-03-04 05:33:40,88,-10.17,123.58,80.6,10.29
181,Taree,75,AU,2020-03-04 05:33:40,69,-31.9,152.47,80.01,14.99
182,Lourdes,90,FR,2020-03-04 05:33:41,87,43.1,-0.05,44.6,4.7
183,Ialibu,99,PG,2020-03-04 05:33:41,88,-6.28,143.99,71.47,2.48
184,Boguchany,100,RU,2020-03-04 05:33:41,85,58.38,97.45,21.56,2.08
185,East London,0,ZA,2020-03-04 05:33:41,88,-33.02,27.91,69.8,8.05
186,Kuytun,94,RU,2020-03-04 05:33:41,93,54.34,101.5,24.87,5.44
187,Bilibino,0,RU,2020-03-04 05:33:42,64,68.05,166.44,-4.65,1.45
188,Kahului,40,US,2020-03-04 05:29:54,73,20.89,-156.47,75.2,9.17
189,Maple Creek,63,CA,2020-03-04 05:33:42,56,49.92,-109.48,33.87,19.95
190,Gorahun,82,SL,2020-03-04 05:33:43,98,7.47,-11.24,74.41,0.54
191,Kununurra,90,AU,2020-03-04 05:33:43,58,-15.77,128.73,86.0,6.93
192,Provideniya,48,RU,2020-03-04 05:29:45,65,64.38,-173.3,8.6,3.87
193,Winnemucca,1,US,2020-03-04 05:33:43,64,40.97,-117.74,37.4,5.82
194,Port Macquarie,75,AU,2020-03-04 05:33:43,69,-31.43,152.92,82.0,14.99
195,Lavrentiya,97,RU,2020-03-04 05:30:51,67,65.58,-171.0,3.78,5.61
196,Luyang,100,CN,2020-03-04 05:33:44,72,27.62,110.1,48.47,3.56
197,Margate,67,GB,2020-03-04 05:33:44,72,51.38,1.39,39.99,6.93
198,Rancho Veloz,20,CU,2020-03-04 05:33:44,94,22.88,-80.39,69.8,5.82
199,Saskylakh,100,RU,2020-03-04 05:33:45,92,71.92,114.08,5.5,4.79
200,Songjianghe,100,CN,2020-03-04 05:33:45,89,42.19,127.48,22.37,13.73
201,Atuona,4,PF,2020-03-04 05:29:41,76,-9.8,-139.03,81.52,12.15
202,Cairns,47,AU,2020-03-04 05:30:34,66,-16.92,145.77,91.0,5.82
203,Flinders,75,AU,2020-03-04 05:33:45,94,-34.58,150.86,75.0,11.41
204,Moranbah,99,AU,2020-03-04 05:31:15,57,-22.0,148.05,88.2,16.78
205,Awjilah,50,LY,2020-03-04 05:33:46,75,29.11,21.29,59.56,15.99
206,Dongsheng,0,CN,2020-03-04 05:33:46,20,39.82,109.98,32.27,4.85
207,Bandrele,20,YT,2020-03-04 05:33:46,66,-12.91,45.19,86.0,12.75
208,Udachny,95,RU,2020-03-04 05:33:46,78,66.42,112.4,10.4,6.71
209,Yumen,0,CN,2020-03-04 05:33:47,17,40.28,97.2,48.54,5.48
210,Salalah,0,OM,2020-03-04 05:30:31,26,17.02,54.09,84.2,9.17
211,Chokurdakh,0,RU,2020-03-04 05:33:47,79,70.63,147.92,-0.72,8.25
212,Ancud,94,CL,2020-03-04 05:33:47,100,-41.87,-73.82,50.0,3.36
213,Trelew,56,AR,2020-03-04 05:33:48,85,-43.25,-65.31,61.48,13.71
214,Buala,100,SB,2020-03-04 05:33:48,72,-8.14,159.59,85.89,1.43
215,Bosaso,40,SO,2020-03-04 05:33:48,88,11.28,49.18,73.4,4.7
216,Söderhamn,100,SE,2020-03-04 05:33:49,98,61.3,17.06,33.48,14.36
217,Griffith,1,US,2020-03-04 05:33:49,80,41.53,-87.42,39.99,6.62
218,Penzance,100,GB,2020-03-04 05:33:49,93,50.12,-5.54,46.99,16.11
219,Kawalu,100,ID,2020-03-04 05:33:49,68,-7.38,108.21,83.19,5.41
220,Hualmay,100,PE,2020-03-04 05:33:50,79,-11.1,-77.61,71.04,4.45
221,Laguna,1,US,2020-03-04 05:33:50,58,38.42,-121.42,61.0,5.82
222,Brae,97,GB,2020-03-04 05:33:50,86,60.4,-1.35,41.0,8.05
223,Luwuk,100,ID,2020-03-04 05:30:26,85,-0.95,122.79,79.56,1.79
224,Nikolskoye,90,RU,2020-03-04 05:33:50,93,59.7,30.79,35.6,13.42
225,Dunedin,0,NZ,2020-03-04 05:33:51,62,-45.87,170.5,55.0,7.0
226,‘Āhuimanu,75,US,2020-03-04 05:33:51,83,21.44,-157.84,78.8,8.05
227,Nome,90,US,2020-03-04 05:33:51,72,64.5,-165.41,10.4,18.34
228,Ribeira Grande,96,PT,2020-03-04 05:33:51,75,38.52,-28.7,56.25,25.34
229,Shihezi,78,CN,2020-03-04 05:33:52,62,44.3,86.03,41.59,3.47
230,Lakatoro,13,VU,2020-03-04 05:33:52,74,-16.1,167.42,86.0,6.93
231,Ubari,10,LY,2020-03-04 05:33:52,27,26.59,12.78,55.04,8.01
232,Chudniv,100,UA,2020-03-04 05:33:52,89,50.05,28.12,44.71,4.59
233,Upernavik,100,GL,2020-03-04 05:33:53,49,72.79,-56.15,-15.74,2.17
234,Labytnangi,70,RU,2020-03-04 05:33:53,78,66.66,66.42,12.76,19.13
235,Samfya,100,ZM,2020-03-04 05:33:53,98,-11.36,29.56,64.15,4.7
236,Pochutla,0,MX,2020-03-04 05:33:53,88,15.74,-96.47,75.99,13.94
237,Hambantota,75,LK,2020-03-04 05:33:53,79,6.12,81.12,84.2,2.24
238,Bengkulu,100,ID,2020-03-04 05:30:33,82,-3.8,102.27,82.54,6.26
239,Sinnamary,71,GF,2020-03-04 05:33:54,79,5.38,-52.95,78.4,15.48
240,Peniche,75,PT,2020-03-04 05:33:54,87,39.36,-9.38,59.0,4.7
241,Mumford,71,GH,2020-03-04 05:33:54,96,5.26,-0.76,77.52,2.8
242,Hong Kong,40,HK,2020-03-04 05:30:25,73,22.29,114.16,73.99,6.93
243,Poum,2,NC,2020-03-04 05:33:55,69,-20.23,164.02,82.22,5.17
244,Mława,75,PL,2020-03-04 05:33:55,93,53.11,20.38,39.2,9.17
245,Kaspiysk,44,RU,2020-03-04 05:33:55,87,42.88,47.64,44.6,4.63
246,Chake Chake,95,TZ,2020-03-04 05:33:55,77,-5.25,39.77,84.04,13.09
247,Meadow Lake,1,US,2020-03-04 05:33:56,43,34.8,-106.54,46.4,8.05
248,Viedma,2,AR,2020-03-04 05:33:56,50,-40.81,-63.0,76.3,11.81
249,Qaqortoq,0,GL,2020-03-04 05:33:56,45,60.72,-46.03,1.4,4.7
250,Bulungu,70,CD,2020-03-04 05:33:56,88,-4.55,18.6,72.43,1.43
251,Mount Gambier,76,AU,2020-03-04 05:29:52,56,-37.83,140.77,71.6,11.41
252,Rocha,0,UY,2020-03-04 05:33:57,96,-34.48,-54.33,61.29,6.98
253,Leningradskiy,100,RU,2020-03-04 05:33:57,93,69.38,178.42,8.58,12.21
254,Abdulino,100,RU,2020-03-04 05:33:57,95,53.7,53.67,24.84,9.93
255,Nezhinka,100,RU,2020-03-04 05:33:57,79,51.77,55.37,21.2,6.71
256,Mikhaylov,98,RU,2020-03-04 05:33:57,100,54.23,39.02,36.0,4.07
257,Gouyave,20,GD,2020-03-04 05:33:58,83,12.16,-61.73,78.8,11.41
258,Haapiti,20,PF,2020-03-04 05:33:58,78,-17.57,-149.87,82.4,5.82
259,Estepona,20,ES,2020-03-04 05:33:58,87,36.43,-5.15,60.8,12.75
260,Nipawin,90,CA,2020-03-04 05:33:58,92,53.37,-104.0,23.0,6.93
261,Kruisfontein,0,ZA,2020-03-04 05:30:29,44,-34.0,24.73,79.81,5.97
262,Samarai,74,PG,2020-03-04 05:33:59,83,-10.62,150.67,84.76,2.44
263,Vardø,3,NO,2020-03-04 05:33:59,73,70.37,31.11,19.4,10.29
264,Kortkeros,0,RU,2020-03-04 05:33:59,85,61.81,51.58,19.4,4.47
265,Tagāb,90,AF,2020-03-04 05:33:59,62,34.85,69.65,51.8,13.87
266,Sylacauga,90,US,2020-03-04 05:34:00,100,33.17,-86.25,63.0,2.3
267,Yar-Sale,88,RU,2020-03-04 05:30:09,93,66.83,70.83,14.18,13.67
268,Meïganga,25,CM,2020-03-04 05:34:00,64,6.52,14.3,68.22,1.92
269,Lorengau,97,PG,2020-03-04 05:34:00,78,-2.02,147.27,83.84,22.55
270,Puerto del Rosario,0,ES,2020-03-04 05:33:08,72,28.5,-13.86,64.4,10.29
271,Lompoc,90,US,2020-03-04 05:34:01,93,34.64,-120.46,55.99,3.36
272,Rāmshīr,0,IR,2020-03-04 05:34:01,62,30.89,49.41,59.0,2.24
273,Kropotkin,97,RU,2020-03-04 05:34:01,57,45.44,40.58,50.45,6.13
274,Zhigansk,100,RU,2020-03-04 05:30:17,88,66.77,123.37,1.13,25.64
275,Ternate,72,ID,2020-03-04 05:34:01,73,0.8,127.4,85.33,4.29
276,Marawi,50,PH,2020-03-04 05:34:02,80,8.0,124.29,82.99,7.0
277,Olafsvik,28,IS,2020-03-04 05:34:02,72,64.89,-23.71,29.66,11.97
278,Geraldton,0,AU,2020-03-04 05:34:02,23,-28.77,114.6,95.0,16.11
279,Saryozek,40,KZ,2020-03-04 05:34:02,94,44.36,77.98,30.79,3.0
280,Gimli,60,CA,2020-03-04 05:34:03,88,50.63,-96.99,14.0,3.38
281,Tateyama,75,JP,2020-03-04 05:30:19,81,34.98,139.87,54.0,10.29
282,Sabha,13,LY,2020-03-04 05:34:03,27,27.04,14.43,57.04,9.73
283,Carnarvon,0,AU,2020-03-04 05:34:03,55,-24.87,113.63,89.6,11.41
284,Rafaela,0,AR,2020-03-04 05:34:03,47,-31.25,-61.49,75.0,4.41
285,Vostok,100,RU,2020-03-04 05:34:04,93,46.49,135.88,26.53,2.8
286,Lamu,82,KE,2020-03-04 05:34:04,79,-2.27,40.9,82.96,6.67
287,Tilichiki,0,RU,2020-03-04 05:34:04,75,60.47,166.1,-3.28,0.58
288,Zhoucheng,0,CN,2020-03-04 05:34:04,15,35.91,116.31,47.8,8.79
289,Balkhash,4,KZ,2020-03-04 05:34:05,62,46.84,74.98,23.0,8.95
290,Celestún,0,MX,2020-03-04 05:34:05,71,20.87,-90.4,79.23,16.58
291,Tococ,17,PH,2020-03-04 05:34:05,40,16.03,120.32,89.6,10.92
292,Hillsborough,20,US,2020-03-04 05:34:05,76,37.57,-122.38,61.0,10.29
293,Turochak,100,RU,2020-03-04 05:34:06,90,52.26,87.12,26.74,11.65
294,Hamm,90,DE,2020-03-04 05:34:06,86,51.68,7.82,41.0,8.05
295,Marshall,90,US,2020-03-04 05:34:06,76,34.38,-86.33,57.99,3.36
296,Kutum,0,SD,2020-03-04 05:34:06,14,14.2,24.67,70.74,2.89
297,Shache,1,CN,2020-03-04 05:34:06,24,38.42,77.24,56.41,2.64
298,Vanderhoof,58,CA,2020-03-04 05:34:07,72,54.02,-124.02,30.15,17.52
299,Souillac,40,MU,2020-03-04 05:34:07,79,-20.52,57.52,84.2,1.12
300,Saint-Philippe,75,RE,2020-03-04 05:34:07,88,-21.36,55.77,86.0,10.29
301,Xuanzhou,95,CN,2020-03-04 05:34:07,59,30.95,118.76,55.36,8.79
302,Melo,0,UY,2020-03-04 05:34:08,96,-32.37,-54.18,60.78,3.4
303,Riviere-au-Renard,40,CA,2020-03-04 05:34:08,92,49.0,-64.4,21.2,2.24
304,Coquimbo,90,CL,2020-03-04 05:34:08,87,-29.95,-71.34,60.8,2.24
305,Dwārka,0,IN,2020-03-04 05:32:05,77,22.24,68.97,73.94,9.8
306,Macenta,38,GN,2020-03-04 05:34:09,98,8.54,-9.47,68.65,0.49
307,Tegul'det,100,RU,2020-03-04 05:34:09,88,57.31,88.17,25.9,8.81
308,Presidente Médici,99,BR,2020-03-04 05:34:09,98,-11.18,-61.9,72.68,4.36
309,Airai,87,TL,2020-03-04 05:29:42,85,-8.93,125.41,76.41,3.4
310,Caucayá,67,CO,2020-03-04 05:34:09,95,-0.19,-74.78,71.94,0.49
311,Palora,43,EC,2020-03-04 05:34:10,94,-1.7,-77.93,64.67,3.09
312,Tuatapere,14,NZ,2020-03-04 05:34:10,50,-46.13,167.68,57.0,8.99
313,Nishihara,90,JP,2020-03-04 05:34:10,64,26.18,127.76,71.6,13.87
314,Lebu,0,CL,2020-03-04 05:34:10,92,-37.62,-73.65,51.76,5.08
315,São João da Barra,82,BR,2020-03-04 05:34:10,92,-21.64,-41.05,72.81,5.57
316,Sabzawār,87,IR,2020-03-04 05:34:11,62,36.21,57.68,41.09,4.81
317,Maple Valley,90,US,2020-03-04 05:33:03,93,47.39,-122.05,48.0,11.41
318,Santa Isabel Rio Negro,100,BR,2020-03-04 05:34:11,98,-0.41,-65.02,74.41,1.9
319,Panzhihua,4,CN,2020-03-04 05:34:11,52,26.59,101.71,62.01,0.34
320,Colares,75,PT,2020-03-04 05:34:11,87,38.8,-9.45,61.0,4.7
321,Nola,75,IT,2020-03-04 05:34:12,93,40.92,14.53,52.0,4.7
322,Litija,75,SI,2020-03-04 05:34:12,93,46.06,14.82,41.0,1.12
323,Boda,81,CF,2020-03-04 05:34:12,71,4.32,17.47,74.52,2.53
324,Manggar,91,ID,2020-03-04 05:34:12,80,-2.88,108.27,82.56,14.83
325,Umm Kaddadah,0,SD,2020-03-04 05:34:13,9,13.6,26.69,72.01,8.57
326,Serabu,88,SL,2020-03-04 05:34:13,92,7.8,-12.05,75.67,1.25
327,Warmbad,0,NA,2020-03-04 05:34:13,35,-28.45,18.73,80.19,11.45
328,Sisimiut,0,GL,2020-03-04 05:34:13,38,66.94,-53.67,-10.64,4.85
329,Illapel,0,CL,2020-03-04 05:34:14,81,-31.63,-71.17,55.2,2.19
330,Zhovkva,75,UA,2020-03-04 05:34:14,93,50.06,23.97,44.6,6.71
331,Saint-Joseph,75,RE,2020-03-04 05:34:14,88,-21.37,55.62,86.0,10.29
332,Corinth,75,GR,2020-03-04 05:34:14,72,37.94,22.96,62.01,17.22
333,Itarema,100,BR,2020-03-04 05:30:16,93,-2.92,-39.92,75.81,2.42
334,Termoli,0,IT,2020-03-04 05:34:15,59,41.99,14.99,46.0,7.87
335,Uray,79,RU,2020-03-04 05:34:15,77,60.12,64.78,29.68,11.72
336,Nelson Bay,75,AU,2020-03-04 05:33:55,65,-32.72,152.15,80.01,12.75
337,Ciudad Bolivar,19,VE,2020-03-04 05:34:15,68,8.12,-63.55,74.14,12.46
338,Wonthaggi,100,AU,2020-03-04 05:34:15,71,-38.6,145.59,71.01,5.01
339,Xaçmaz,51,AZ,2020-03-04 05:34:16,74,41.46,48.81,49.82,1.9
340,Havelock,1,US,2020-03-04 05:34:16,87,34.88,-76.9,62.6,9.17
341,Kilindoni,100,TZ,2020-03-04 05:34:16,84,-7.91,39.67,80.24,6.35
342,Rome,90,US,2020-03-04 05:33:06,86,43.21,-75.46,42.01,13.87
343,São Sebastião,96,BR,2020-03-04 05:34:16,87,-23.76,-45.41,74.34,17.4
344,Bonavista,77,CA,2020-03-04 05:34:17,94,48.65,-53.11,33.28,10.54
345,Sol'-Iletsk,100,RU,2020-03-04 05:34:17,86,51.16,54.99,24.75,8.39
346,Grindavik,75,IS,2020-03-04 05:34:17,92,63.84,-22.43,28.4,5.82
347,Tselinnoye,100,RU,2020-03-04 05:34:17,88,53.08,85.67,25.56,18.12
348,Kudahuvadhoo,65,MV,2020-03-04 05:34:18,73,2.67,72.89,82.51,12.24
349,Aswān,0,EG,2020-03-04 05:30:08,24,24.09,32.91,69.28,6.08
350,Pangnirtung,90,CA,2020-03-04 05:34:18,77,66.15,-65.71,5.0,4.7
351,Muisne,98,EC,2020-03-04 05:34:18,91,0.6,-80.03,75.11,4.21
352,San Cristobal,40,VE,2020-03-04 05:30:26,69,7.77,-72.22,80.6,2.24
353,Zhuhai,40,CN,2020-03-04 05:34:19,83,22.28,113.57,73.99,9.17
354,Pacific Grove,1,US,2020-03-04 05:30:01,71,36.62,-121.92,57.99,5.66
355,Broken Hill,90,AU,2020-03-04 05:30:58,88,-31.95,141.43,66.2,10.29
356,Havre-St-Pierre,90,CA,2020-03-04 05:34:19,92,50.23,-63.6,24.8,4.7
357,Kuching,40,MY,2020-03-04 05:34:19,75,1.55,110.33,89.6,2.24
358,Ucluelet,99,CA,2020-03-04 05:30:35,84,48.93,-125.55,44.01,8.01
359,Muros,90,ES,2020-03-04 05:34:20,100,42.78,-9.06,60.01,9.17
360,Kaolack,0,SN,2020-03-04 05:34:20,9,14.18,-16.25,72.43,5.91
361,Dingle,62,PH,2020-03-04 05:34:20,58,11.0,122.67,85.26,12.95
362,Qui Nhon,79,VN,2020-03-04 05:34:20,62,13.77,109.23,82.42,7.2
363,Nanortalik,0,GL,2020-03-04 05:34:21,66,60.14,-45.24,15.24,13.31
364,Toppenish,1,US,2020-03-04 05:34:21,53,46.38,-120.31,54.0,8.05
365,Horsham,96,GB,2020-03-04 05:32:35,89,51.06,-0.33,37.99,2.17
366,Manuk Mangkaw,79,PH,2020-03-04 05:34:21,76,4.8,119.85,83.28,12.01
367,Talnakh,75,RU,2020-03-04 05:34:21,85,69.49,88.4,15.8,11.18
368,Port-Gentil,40,GA,2020-03-04 05:34:22,94,-0.72,8.78,82.4,1.12
369,Lagoa,98,PT,2020-03-04 05:34:22,70,39.05,-27.98,60.35,30.38
370,Isangel,75,VU,2020-03-04 05:34:22,70,-19.55,169.27,86.0,6.93
371,Robertsport,100,LR,2020-03-04 05:34:22,87,6.75,-11.37,81.57,5.5
372,Itoman,75,JP,2020-03-04 05:34:23,68,26.12,127.67,71.6,6.93
373,Kimberley,0,ZA,2020-03-04 05:34:23,87,-28.73,24.76,59.0,1.12
374,Honggang,0,CN,2020-03-04 05:34:23,84,46.47,124.87,23.63,10.8
375,North Bend,90,US,2020-03-04 05:34:23,100,43.41,-124.22,48.0,4.7
376,Rock Sound,100,BS,2020-03-04 05:34:23,87,24.9,-76.2,73.81,13.49
377,Pirot,75,RS,2020-03-04 05:34:24,93,43.15,22.59,48.2,10.29
378,Tromsø,7,NO,2020-03-04 05:30:12,53,69.65,18.96,26.6,27.51
379,Hays,90,US,2020-03-04 05:34:24,88,30.05,-98.03,69.01,6.93
380,Palana,97,RU,2020-03-04 05:34:24,87,59.12,159.97,9.86,1.05
381,Stonewall,75,CA,2020-03-04 05:34:25,78,50.13,-97.33,17.6,5.82
382,Forsytheganj,95,BY,2020-03-04 05:30:13,91,52.63,29.73,42.19,8.32
383,Necochea,0,AR,2020-03-04 05:34:25,95,-38.55,-58.74,64.99,1.99
384,Valparaíso,90,CL,2020-03-04 05:34:25,93,-33.04,-71.63,59.0,3.87
385,Akdepe,0,TM,2020-03-04 05:34:26,69,42.06,59.38,33.8,13.87
386,Sitka,75,US,2020-03-04 05:29:59,64,57.05,-135.33,35.6,12.75
387,Gus-Zheleznyy,100,RU,2020-03-04 05:34:26,97,55.06,41.17,35.6,0.76
388,Padang,57,ID,2020-03-04 05:31:37,89,-0.95,100.35,76.84,3.33
389,Sharjah city,40,AE,2020-03-04 05:33:11,53,25.36,55.4,71.6,10.29
390,Comodoro Rivadavia,100,AR,2020-03-04 05:32:57,87,-45.87,-67.5,59.0,14.72
391,Tiarei,20,PF,2020-03-04 05:34:27,78,-17.53,-149.33,82.4,5.82
392,Kiunga,84,PG,2020-03-04 05:34:27,62,-6.12,141.29,90.21,3.98
393,Agropoli,92,IT,2020-03-04 05:34:27,83,40.35,15.0,46.0,1.99
394,Bantigue,2,PH,2020-03-04 05:34:27,62,10.99,124.62,84.63,7.18
395,Sørland,65,NO,2020-03-04 05:29:50,65,67.67,12.69,34.57,19.66
396,Kargat,98,RU,2020-03-04 05:34:28,91,55.2,80.28,27.34,11.92
397,Kyra,36,RU,2020-03-04 05:34:28,80,49.58,111.98,9.59,5.1
398,Fes,0,MA,2020-03-04 05:32:56,75,34.04,-5.0,44.6,6.93
399,Novikovo,74,RU,2020-03-04 05:34:28,91,51.15,37.89,38.25,8.95
400,Lazarev,35,RU,2020-03-04 05:34:29,90,52.23,141.51,13.91,2.15
401,Mount Hagen,89,PG,2020-03-04 05:34:29,94,-5.86,144.23,61.83,2.75
402,Cockburn Town,70,TC,2020-03-04 05:34:29,79,21.46,-71.14,77.68,21.79
403,Matara,49,LK,2020-03-04 05:34:29,66,5.95,80.54,84.09,5.08
404,Prince George,75,CA,2020-03-04 05:32:57,64,53.92,-122.75,34.0,12.75
405,Aykhal,59,RU,2020-03-04 05:34:30,78,66.0,111.5,10.4,6.71
406,Westport,90,US,2020-03-04 05:34:07,71,41.14,-73.36,52.0,5.82
407,Bodden Town,0,KY,2020-03-04 05:34:30,86,19.28,-81.25,79.0,5.01
408,Banda Aceh,30,ID,2020-03-04 05:34:22,52,5.56,95.32,89.67,9.19
409,Heraclea,0,TR,2020-03-04 05:34:30,45,37.51,34.05,49.53,1.7
410,Clyde River,20,CA,2020-03-04 05:34:31,82,70.47,-68.59,-18.4,12.75
411,Meridian,1,US,2020-03-04 05:34:31,63,43.61,-116.39,44.6,5.82
412,Khadyzhensk,53,RU,2020-03-04 05:34:31,53,44.43,39.53,52.83,2.71
413,Ostrovnoy,99,RU,2020-03-04 05:34:31,96,68.05,39.51,13.71,9.69
414,San Andrés,20,CO,2020-03-04 05:33:38,74,12.58,-81.7,80.6,9.17
415,Gamba,100,GA,2020-03-04 05:34:32,91,-2.65,10.0,78.39,3.83
416,Kenai,1,US,2020-03-04 05:33:06,54,60.55,-151.26,10.99,6.93
417,Liverpool,100,GB,2020-03-04 05:34:11,93,53.41,-2.98,37.0,4.7
418,Taoudenni,0,ML,2020-03-04 05:34:32,13,22.68,-3.98,67.6,6.51
419,Superior,90,US,2020-03-04 05:34:32,58,46.72,-92.1,30.2,16.11
420,Tibiao,61,PH,2020-03-04 05:34:33,67,11.29,122.04,83.05,21.14
421,Moïssala,2,TD,2020-03-04 05:34:33,19,8.34,17.77,77.97,3.38
422,Mogadishu,20,SO,2020-03-04 05:34:33,69,2.04,45.34,80.6,5.82
423,Içara,94,BR,2020-03-04 05:34:33,97,-28.71,-49.3,57.85,2.37
424,Kuusamo,17,FI,2020-03-04 05:34:34,75,65.97,29.18,-16.6,1.12
425,Hamilton,1,US,2020-03-04 05:34:34,60,39.18,-84.53,45.0,4.59
426,Zirgan,100,RU,2020-03-04 05:34:34,82,53.22,55.92,21.72,5.55
427,San Policarpo,5,PH,2020-03-04 05:34:34,77,12.18,125.51,81.1,13.15
428,Cologne,90,DE,2020-03-04 05:31:47,93,50.93,6.95,42.01,8.05
429,Port Hardy,75,CA,2020-03-04 05:30:41,86,50.7,-127.42,39.2,5.82
430,San Patricio,5,MX,2020-03-04 05:34:35,78,19.22,-104.7,73.62,7.7
431,Nouadhibou,0,MR,2020-03-04 05:34:35,82,20.93,-17.03,64.4,13.87
432,Atherton,100,GB,2020-03-04 05:34:35,81,53.52,-2.49,37.0,2.24
433,Nísia Floresta,20,BR,2020-03-04 05:34:36,88,-6.09,-35.21,80.6,2.24
434,Muriti,75,TZ,2020-03-04 05:34:36,88,-1.98,32.92,69.8,2.24
435,Aginskoye,63,RU,2020-03-04 05:34:36,60,51.1,114.53,22.68,9.53
436,Turukhansk,100,RU,2020-03-04 05:34:36,93,65.82,87.98,18.39,15.23
437,Kathu,20,TH,2020-03-04 05:34:37,43,7.92,98.33,91.4,12.75
438,Biloela,100,AU,2020-03-04 05:34:37,54,-24.42,150.5,84.13,14.14
439,Jalu,50,LY,2020-03-04 05:34:37,75,29.03,21.55,59.56,15.99
440,Laizhou,0,CN,2020-03-04 05:34:37,39,37.18,119.93,37.04,17.16
441,Samaná,3,DO,2020-03-04 05:34:37,97,19.21,-69.34,67.73,0.69
442,Orlik,100,RU,2020-03-04 05:34:38,56,52.52,99.83,25.25,2.44
443,La Ronge,90,CA,2020-03-04 05:34:38,85,55.1,-105.28,24.8,10.29
444,Laminusa,79,PH,2020-03-04 05:34:38,69,5.55,120.91,82.63,4.14
445,La Macarena,55,CO,2020-03-04 05:34:38,91,2.18,-73.78,73.17,3.02
446,Chui,0,UY,2020-03-04 05:34:39,92,-33.7,-53.46,65.93,6.13
447,Joshīmath,14,IN,2020-03-04 05:34:39,31,30.57,79.57,48.49,7.0
448,Rincon,90,US,2020-03-04 05:34:39,82,32.3,-81.24,66.99,3.36
449,Fuling,97,CN,2020-03-04 05:34:39,84,29.7,107.39,47.52,2.04
450,Newport,100,GB,2020-03-04 05:32:07,80,51.59,-3.0,41.0,4.7
451,Charters Towers,95,AU,2020-03-04 05:30:22,61,-20.1,146.27,87.33,12.88
452,Sobolevo,64,RU,2020-03-04 05:34:40,89,54.43,31.9,37.83,10.63
453,Challakere,72,IN,2020-03-04 05:34:40,27,14.32,76.65,86.88,8.48
454,Tabou,38,CI,2020-03-04 05:34:40,93,4.42,-7.35,77.54,3.56
455,Ivanava,100,BY,2020-03-04 05:34:40,97,52.15,25.54,45.91,6.04
456,Hasaki,75,JP,2020-03-04 05:34:41,100,35.73,140.83,51.8,1.12
457,Bulgan,85,MN,2020-03-04 05:34:41,73,48.81,103.53,21.96,1.77
458,Mankato,1,US,2020-03-04 05:30:53,94,44.16,-94.0,34.0,11.41
459,Russell,90,US,2020-03-04 05:30:00,93,32.35,-85.2,64.0,1.39
460,Bambanglipuro,82,ID,2020-03-04 05:34:41,61,-7.95,110.28,87.49,10.02
461,Gladstone,75,AU,2020-03-04 05:30:51,65,-23.85,151.25,82.4,19.46
462,Susanville,1,US,2020-03-04 05:32:38,67,40.42,-120.65,39.99,6.93
463,Takefu,75,JP,2020-03-04 05:34:42,93,35.9,136.17,46.4,3.36
464,Nur-Sultan,58,KZ,2020-03-04 05:34:43,85,51.18,71.45,14.0,13.42
465,Adrar,0,MR,2020-03-04 05:34:43,9,20.5,-10.07,68.95,9.82
466,Brooks,99,CA,2020-03-04 05:34:43,70,50.58,-111.89,35.01,4.0
467,Visnes,75,NO,2020-03-04 05:34:43,100,59.36,5.22,37.99,5.82
468,Camaná,100,PE,2020-03-04 05:34:43,90,-16.62,-72.71,66.07,5.12
469,Chipata,100,ZM,2020-03-04 05:34:44,98,-13.63,32.65,63.16,4.27
470,Mandalgovi,0,MN,2020-03-04 05:34:44,45,45.76,106.27,23.05,18.61
471,Belyy Yar,75,RU,2020-03-04 05:34:44,92,53.6,91.39,28.4,2.24
472,Petropavlovsk-Kamchatskiy,90,RU,2020-03-04 05:34:45,54,53.05,158.65,30.2,4.47
473,Arraias,99,BR,2020-03-04 05:34:45,95,-12.93,-46.94,69.26,2.24
474,Geneva,1,US,2020-03-04 05:34:45,74,41.89,-88.31,39.2,6.93
475,Bonnyville,75,CA,2020-03-04 05:34:45,63,54.27,-110.73,28.4,4.7
476,Pizarro,99,CO,2020-03-04 05:34:46,85,4.95,-77.37,79.47,4.05
477,Nogales,75,MX,2020-03-04 05:34:46,87,31.31,-110.94,48.0,4.7
478,Ulaangom,93,MN,2020-03-04 05:34:46,92,49.98,92.07,7.74,7.07
479,Sayyan,0,YE,2020-03-04 05:34:46,34,15.17,44.32,63.12,3.62
480,Vicuña,90,CL,2020-03-04 05:34:47,87,-30.03,-70.71,60.8,2.24
481,Yarensk,21,RU,2020-03-04 05:34:47,94,62.17,49.09,16.25,4.05
482,Sabinas,71,MX,2020-03-04 05:34:47,93,27.85,-101.12,63.0,0.74
483,Hirado,75,JP,2020-03-04 05:34:47,62,33.36,129.55,55.0,18.34
484,Warrnambool,33,AU,2020-03-04 05:34:47,84,-38.38,142.48,61.48,12.77
485,Sept-Îles,75,CA,2020-03-04 05:30:30,92,50.2,-66.38,21.99,5.82
486,Toccoa,40,US,2020-03-04 05:34:48,76,34.58,-83.33,61.0,2.84
487,Iturama,43,BR,2020-03-04 05:34:48,92,-19.73,-50.2,67.66,4.18
488,Oxford,100,GB,2020-03-04 05:29:58,100,51.75,-1.26,37.99,4.7
489,Healdsburg,1,US,2020-03-04 05:34:49,76,38.61,-122.87,57.2,2.39
490,Kalevala,58,RU,2020-03-04 05:34:49,96,65.2,31.17,7.45,5.21
491,Kaniama,97,CD,2020-03-04 05:34:49,91,-7.57,24.18,67.01,1.81
492,Mkushi,100,ZM,2020-03-04 05:34:49,96,-13.62,29.39,59.72,6.71
493,Tevriz,100,RU,2020-03-04 05:34:50,95,57.51,72.4,32.74,10.29
494,Shingū,75,JP,2020-03-04 05:34:50,87,33.73,135.98,53.6,6.93
495,Nuuk,0,GL,2020-03-04 05:34:50,77,64.18,-51.72,5.0,21.92
496,Laas,20,IT,2020-03-04 05:34:50,92,46.62,10.7,34.0,1.12
497,Paraíso,75,CR,2020-03-04 05:34:51,64,9.84,-83.87,73.4,9.17
498,Champerico,0,GT,2020-03-04 05:34:51,77,14.3,-91.92,75.76,4.29
499,Ngawen,57,ID,2020-03-04 05:34:51,76,-7.0,111.31,85.84,9.4
500,Duvan,90,RU,2020-03-04 05:34:51,82,55.7,57.9,23.36,8.75
501,Asău,83,RO,2020-03-04 05:34:52,93,46.43,26.4,43.0,9.17
502,Ponta Delgada,75,PT,2020-03-04 05:34:52,93,37.73,-25.67,64.4,19.46
503,Philadelphia,20,US,2020-03-04 05:32:38,57,39.95,-75.16,50.0,11.41
504,Ambon City,40,ID,2020-03-04 05:34:52,55,-3.7,128.18,91.4,8.05
505,San Francisco,20,US,2020-03-04 05:30:00,76,37.77,-122.42,61.0,10.29
506,Gwadar,0,PK,2020-03-04 05:34:53,69,25.12,62.33,72.5,13.47
507,Ñuñoa,100,PE,2020-03-04 05:34:53,89,-14.48,-70.64,39.87,3.22
508,Dmitriyevka,100,RU,2020-03-04 05:34:53,85,54.75,55.33,24.8,4.47
509,Cayenne,21,GF,2020-03-04 05:34:53,78,4.93,-52.33,78.8,5.82
510,Gorontalo,100,ID,2020-03-04 05:34:54,92,0.54,123.06,80.56,6.55
511,Soria,77,ES,2020-03-04 05:34:54,87,41.67,-2.67,48.87,17.38
512,Hobyo,52,SO,2020-03-04 05:34:54,56,5.35,48.53,81.88,12.97
513,Along,0,IN,2020-03-04 05:34:54,40,28.17,94.77,74.37,3.06
514,Pekan,40,MY,2020-03-04 05:34:55,66,3.48,103.4,89.6,4.7
515,Stephenville,90,US,2020-03-04 05:34:18,71,32.22,-98.2,61.0,9.17
516,Turiaçu,100,BR,2020-03-04 05:34:55,95,-1.66,-45.37,75.67,3.33
517,Bathsheba,40,BB,2020-03-04 05:30:03,69,13.22,-59.52,78.8,18.34
518,Tessalit,0,ML,2020-03-04 05:34:56,9,20.2,1.01,66.67,8.39
519,Vao,64,NC,2020-03-04 05:30:11,81,-22.67,167.48,79.9,13.71
520,Constitución,1,CL,2020-03-04 05:34:56,72,-35.33,-72.42,55.27,3.24
521,Srandakan,82,ID,2020-03-04 05:34:56,61,-7.94,110.25,87.49,10.02
522,Pinotepa Nacional,0,MX,2020-03-04 05:34:56,85,16.32,-98.02,66.29,3.04
523,Sal Rei,40,CV,2020-03-04 05:34:57,88,16.18,-22.92,69.8,11.41
524,Aksaray,0,TR,2020-03-04 05:34:57,80,38.37,34.03,35.6,1.12
525,Sandane,40,NO,2020-03-04 05:34:57,51,61.77,6.21,39.99,8.05
526,Tahe,10,CN,2020-03-04 05:34:57,64,52.33,124.73,19.92,4.54
527,Hirara,75,JP,2020-03-04 05:34:57,69,24.8,125.28,77.0,4.7
528,Dali,6,CN,2020-03-04 05:34:58,45,25.7,100.18,60.4,6.91
529,Ketchikan,75,US,2020-03-04 05:34:58,80,55.34,-131.65,37.4,20.8
530,Ust'-Ilimsk,82,RU,2020-03-04 05:34:58,83,58.0,102.66,21.99,1.5
531,Yasugichō,75,JP,2020-03-04 05:34:58,81,35.43,133.25,53.6,5.82
532,Alindao,0,CF,2020-03-04 05:34:59,57,5.03,21.21,79.11,0.51
533,Prymors'k,100,UA,2020-03-04 05:34:59,79,46.73,36.34,44.6,15.14
534,Sergeevka,100,KZ,2020-03-04 05:34:59,90,53.88,67.42,27.45,12.71
535,Ust-Tsilma,77,RU,2020-03-04 05:35:00,83,65.44,52.15,16.45,11.41
536,Holme,12,DK,2020-03-04 05:35:00,100,56.11,10.17,33.8,3.36
537,Nemuro,75,JP,2020-03-04 05:35:00,80,43.32,145.57,30.2,8.05
538,Coyhaique,100,CL,2020-03-04 05:35:00,76,-45.58,-72.07,57.2,4.7
539,Pueblo Bello,81,CO,2020-03-04 05:35:00,97,8.2,-76.53,72.14,0.63
540,Batemans Bay,100,AU,2020-03-04 05:35:01,97,-35.72,150.18,66.99,1.01
541,Cabadiangan,0,PH,2020-03-04 05:35:01,57,9.75,122.47,85.78,3.67
542,Karratha,15,AU,2020-03-04 05:35:01,68,-20.74,116.85,87.69,10.85
543,Mapiripán,70,CO,2020-03-04 05:35:01,84,2.89,-72.13,75.94,2.71
544,Praia,0,CV,2020-03-04 05:30:35,56,14.92,-23.51,73.4,16.11
545,Anloga,40,GH,2020-03-04 05:35:02,88,5.79,0.9,78.8,4.7
546,Kawambwa,100,ZM,2020-03-04 05:35:02,96,-9.79,29.08,63.64,3.44
547,Palmer,90,US,2020-03-04 05:31:46,100,42.16,-72.33,50.0,8.05
548,Puquio,100,PE,2020-03-04 05:35:02,89,-14.7,-74.13,43.21,1.3
549,Takoradze,98,GH,2020-03-04 05:35:02,94,4.88,-1.76,77.38,2.3
550,Aasiaat,0,GL,2020-03-04 05:35:03,68,68.71,-52.87,-20.06,6.33
551,Zavetnoye,100,RU,2020-03-04 05:35:03,61,47.12,43.89,49.66,5.59
552,Douentza,0,ML,2020-03-04 05:35:03,12,15.0,-2.95,64.2,3.27
553,Magrath,75,CA,2020-03-04 05:31:31,52,49.42,-112.87,42.01,27.51
554,Maturin,1,VE,2020-03-04 05:35:04,94,9.75,-63.18,69.6,4.59
555,Maiduguri,43,NG,2020-03-04 05:35:04,29,11.85,13.16,74.23,7.2
556,Sidi Ben Nour,40,TN,2020-03-04 05:35:04,93,35.53,10.92,54.0,13.87
557,Genhe,99,CN,2020-03-04 05:35:04,80,50.78,121.52,12.96,9.01
558,Oranjemund,0,NA,2020-03-04 05:35:04,67,-28.55,16.43,69.94,2.51
559,Kaura Namoda,89,NG,2020-03-04 05:35:05,20,12.59,6.58,72.55,7.38
560,Yerbogachën,50,RU,2020-03-04 05:35:05,89,61.28,108.01,16.02,8.08
561,Alice Springs,90,AU,2020-03-04 05:35:05,78,-23.7,133.88,73.4,14.99
562,Luganville,40,VU,2020-03-04 05:35:05,70,-15.53,167.17,86.0,8.05
563,Ixtapa,40,MX,2020-03-04 05:35:05,88,20.7,-105.2,71.01,4.34
564,Grants,1,US,2020-03-04 05:35:06,48,35.15,-107.85,32.0,7.54
565,Bairnsdale,100,AU,2020-03-04 05:35:06,86,-37.83,147.62,69.01,6.08
566,Goderich,100,CA,2020-03-04 05:35:06,87,43.75,-81.72,36.0,16.89
567,Batticaloa,65,LK,2020-03-04 05:35:06,48,7.71,81.69,86.67,4.43
568,Tooele,1,US,2020-03-04 05:35:06,84,40.53,-112.3,37.99,9.17
569,Priladozhskiy,90,RU,2020-03-04 05:35:07,94,59.85,31.48,35.6,13.42
570,Merauke,100,ID,2020-03-04 05:35:07,91,-8.47,140.33,79.84,3.96
571,Tual,95,ID,2020-03-04 05:35:07,70,-5.67,132.75,84.69,8.25
572,Khandyga,99,RU,2020-03-04 05:35:07,88,62.67,135.6,3.6,2.8
573,Porto Santo,40,PT,2020-03-04 05:35:07,77,33.07,-16.34,62.6,3.36
574,Jertih,20,MY,2020-03-04 05:35:08,66,5.73,102.49,87.8,11.41
575,Tabas,28,IR,2020-03-04 05:35:08,46,33.6,56.92,50.0,9.17
576,Dudinka,75,RU,2020-03-04 05:35:08,85,69.41,86.18,15.8,11.18
577,Sangar,99,RU,2020-03-04 05:35:08,84,63.92,127.47,2.57,14.99
578,Varadero,20,CU,2020-03-04 05:35:08,94,23.15,-81.25,69.8,5.82
579,Strezhevoy,90,RU,2020-03-04 05:35:09,86,60.73,77.59,30.2,13.42
580,Sutton,100,GB,2020-03-04 05:35:09,77,51.35,-0.2,37.99,3.83
581,Fort Nelson,75,CA,2020-03-04 05:30:35,49,58.81,-122.7,26.6,13.87
582,Lillooet,90,CA,2020-03-04 05:35:09,91,50.69,-121.94,42.8,14.99
583,Kavieng,100,PG,2020-03-04 05:35:10,76,-2.57,150.8,83.17,21.03
584,Baruun-Urt,0,MN,2020-03-04 05:35:10,71,46.68,113.28,16.9,18.59
585,Verkhnyaya Inta,100,RU,2020-03-04 05:35:10,91,65.98,60.31,13.69,27.72
586,Abashiri,75,JP,2020-03-04 05:35:10,68,44.02,144.27,28.4,4.7
587,Richards Bay,0,ZA,2020-03-04 05:35:10,74,-28.78,32.04,75.24,17.16
588,Voyvozh,98,RU,2020-03-04 05:35:11,85,62.89,54.96,18.45,11.5
589,Labuhan,43,ID,2020-03-04 05:35:11,72,-6.88,112.21,87.26,6.53
590,Guerrero Negro,0,MX,2020-03-04 05:35:11,82,27.98,-114.06,59.5,10.92
591,Monrovia,84,LR,2020-03-04 05:33:11,90,6.3,-10.8,79.81,1.74
592,Herat Province,100,AF,2020-03-04 05:35:11,83,34.5,62.0,40.93,24.34
593,Whitianga,80,NZ,2020-03-04 05:35:12,71,-36.83,175.7,73.0,4.0
594,Perth,85,AU,2020-03-04 05:34:18,15,-31.93,115.83,93.2,6.93
595,San Rafael,0,AR,2020-03-04 05:35:12,37,-34.62,-68.33,77.92,13.58
596,Amahai,29,ID,2020-03-04 05:35:12,65,-3.33,128.92,86.36,7.85
597,Vallenar,0,CL,2020-03-04 05:35:12,88,-28.57,-70.76,55.63,1.05
598,Saint-François,90,FR,2020-03-04 05:35:13,93,46.42,3.91,39.99,3.36
599,Ballina,75,AU,2020-03-04 05:35:13,74,-28.87,153.57,82.4,16.11
600,Portland,90,US,2020-03-04 05:35:13,62,45.52,-122.68,52.0,4.7
